{
  "type": "FeatureCollection",
  "features": [
    {
      "type": "Feature",
      "geometry": {
        "type": "Point",
        "coordinates": [
          -76.620614,
          39.334617
        ]
      },
      "properties": {
        "title": "One World Cafe",
        "street": "100 West University Pkwy",
        "city": "Baltimore, MD 21210",
        "phone": "(410) 235-5777",
        "link": "https://www.facebook.com/pages/One-World-Cafe/191474677552909",
        "pic": "http://i.imgur.com/ASmgChx.png"
      }
    },
    {
      "type": "Feature",
      "geometry": {
        "type": "Point",
        "coordinates": [
          -76.500051,
          39.454467
        ]
      },
      "properties": {
        "title": "Jukai Juice",
        "street": "12056 Glen Arm Rd",
        "city": "Glen Arm, MD 21057",
        "phone": "(410) 913-2599",
        "link": "http://www.jukaijuiceco.com/",
        "pic": "http://i.imgur.com/orkyyc8.jpg"
      }
    },
    {
      "type": "Feature",
      "geometry": {
        "type": "Point",
        "coordinates": [
          -76.634077,
          39.331271
        ]
      },
      "properties": {
        "title": "#foodies",
        "street": "3600 Hickory Ave",
        "city": "Baltimore, MD 21211",
        "phone": "(301) 221-6196",
        "link": "https://www.facebook.com/pages/Hashtagfoodies/1541645232773590?fref=ts",
        "pic": "http://i.imgur.com/N69BgmQ.jpg"
      }
    },
    {
      "type": "Feature",
      "geometry": {
        "type": "Point",
        "coordinates": [
          -76.639547,
          39.327388
        ]
      },
      "properties": {
        "title": "Birroteca",
        "street": "1520 Clipper Rd",
        "city": "Baltimore, MD 21211",
        "phone": "(443) 708-1935",
        "link": "http://bmorebirroteca.com/",
        "pic": "http://i.imgur.com/v0ajs7p.png"
      }
    },
    {
      "type": "Feature",
      "geometry": {
        "type": "Point",
        "coordinates": [
          -76.616997,
          39.304265
        ]
      },
      "properties": {
        "title": "OK Natural Food Store",
        "street": "11 West Preston St",
        "city": "Baltimore, MD 21201",
        "phone": "(443) 837-3911",
        "link": "http://www.oknaturalfoods.com/",
        "pic": "http://i.imgur.com/9yqGO09.png"
      }
    },
    {
      "type": "Feature",
      "geometry": {
        "type": "Point",
        "coordinates": [
          -76.615598,
          39.326477
        ]
      },
      "properties": {
        "title": "Eddie's Market of Charles Village",
        "street": "3117 St. Paul's St",
        "city": "Baltimore, MD 21218",
        "phone": "(443) 889-1558",
        "link": "http://eddiesmarket.com/",
        "pic": "http://i.imgur.com/DWppqIJ.png"
      }
    },
    {
      "type": "Feature",
      "geometry": {
        "type": "Point",
        "coordinates": [
          -76.634219,
          39.35587
        ]
      },
      "properties": {
        "title": "Eddie's of Roland Park",
        "street": "5113 Roland Ave",
        "city": "Baltimore, MD 21210",
        "phone": "(410) 323-3656",
        "link": "http://www.eddiesofrolandpark.com",
        "pic": "http://i.imgur.com/bJdYFyP.png"
      }
    },
    {
      "type": "Feature",
      "geometry": {
        "type": "Point",
        "coordinates": [
          -76.626037,
          39.378118
        ]
      },
      "properties": {
        "title": "Eddie's of Roland Park",
        "street": "6213 N Charles St",
        "city": "Baltimore, MD 21212",
        "phone": "(410) 377-8040",
        "link": "http://www.eddiesofrolandpark.com",
        "pic": "http://i.imgur.com/fMOlswt.jpg"
      }
    },
    {
      "type": "Feature",
      "geometry": {
        "type": "Point",
        "coordinates": [
          -76.630933,
          39.331381
        ]
      },
      "properties": {
        "title": "Luigi's Italian Deli",
        "street": "846 W 36th St",
        "city": "Baltimore, MD 21211",
        "phone": "(443) 438-4195",
        "link": "https://www.luigisdeli.net",
        "pic": "http://i.imgur.com/ArxuJeV.jpg"
      }
    },
    {
      "type": "Feature",
      "geometry": {
        "type": "Point",
        "coordinates": [
          -76.630009,
          39.331033
        ]
      },
      "properties": {
        "title": "Common Ground Cafe and Coffee",
        "street": "819 W 36th St",
        "city": "Baltimore, MD 21211",
        "phone": "(410) 235-5533",
        "link": "https://www.facebook.com/CommGroundCafe",
        "pic": "http://i.imgur.com/rfefSk0.jpg"
      }
    },
    {
      "type": "Feature",
      "geometry": {
        "type": "Point",
        "coordinates": [
          -76.635342,
          39.33093
        ]
      },
      "properties": {
        "title": "Your Choice Market",
        "street": "1200 W 36th St",
        "city": "Baltimore, MD 21211",
        "phone": "(410) 235-1159",
        "link": "https://www.facebook.com/pages/Your-Choice-Market/1507406916208339",
        "pic": "http://i.imgur.com/J1dhVX1.jpg"
      }
    },
    {
      "type": "Feature",
      "geometry": {
        "type": "Point",
        "coordinates": [
          -76.629588,
          39.329825
        ]
      },
      "properties": {
        "title": "Harmony Bakery",
        "street": "3446 Chestnut Ave",
        "city": "Baltimore, MD 21211",
        "phone": "(410) 235-3870",
        "link": "http://www.yelp.com/biz/harmony-bakery-baltimore",
        "pic": "http://i.imgur.com/sx6xPNk.jpg"
      }
    },
    {
      "type": "Feature",
      "properties": {
        "title": "Milk and Honey Market",
        "street": "816 Cathedral St",
        "city": "Balimore, MD 21201",
        "phone": "(410) 685-6455",
        "link": "http://milkandhoneybaltimore.com/",
        "pic": "http://i.imgur.com/YG6GH1c.jpg"
      },
      "geometry": {
        "type": "Point",
        "coordinates": [
          -76.6172797,
          39.2993472
        ]
      }
    },
    {
      "type": "Feature",
      "properties": {
        "title": ""
      },
      "geometry": {
        "type": "Point",
        "coordinates": [
          -76.62594795227051,
          39.31162270179303
        ]
      }
    },
    {
      "type": "Feature",
      "properties": {},
      "geometry": {
        "type": "Point",
        "coordinates": [
          -76.629638671875,
          39.31145668107426
        ]
      }
    },
    {
      "type": "Feature",
      "properties": {},
      "geometry": {
        "type": "Point",
        "coordinates": [
          -76.628737449646,
          39.310925412127155
        ]
      }
    }
  ]
}